[
  {
    "id": 1,
    "name": "Marina One Residences",
    "address": "21 Marina Way, Singapore",
    "lat": 1.2773,
    "lng": 103.8538,
    "price": 2800000,
    "size_sqft": 1250,
    "bedrooms": 3,
    "bathrooms": 2,
    "completion_year": 2017,
    "images": [
      "https://images.unsplash.com/photo-1560185127-6a8c9c5b9c6a",
      "https://images.unsplash.com/photo-1502673530728-f79b4cab31b1"
    ],
    "onsite_facilities": { "pool": true, "gym": true }
  },
  {
    "id": 2,
    "name": "The Sail @ Marina Bay",
    "address": "2 Marina Boulevard, Singapore",
    "lat": 1.2806,
    "lng": 103.8528,
    "price": 3200000,
    "size_sqft": 1400,
    "bedrooms": 3,
    "bathrooms": 2,
    "completion_year": 2008,
    "images": [
      "https://images.unsplash.com/photo-1598928506311-c55ded91a20c",
      "https://images.unsplash.com/photo-1600585154340-be6161a56a0c"
    ],
    "onsite_facilities": { "pool": true, "gym": true }
  },
  {
    "id": 3,
    "name": "Reflections at Keppel Bay",
    "address": "1 Keppel Bay View, Singapore",
    "lat": 1.2643,
    "lng": 103.8136,
    "price": 2100000,
    "size_sqft": 1600,
    "bedrooms": 3,
    "bathrooms": 3,
    "completion_year": 2011,
    "images": [
      "https://images.unsplash.com/photo-1554995207-c18c203602cb",
      "https://images.unsplash.com/photo-1600566753376-12c8ab7fb75b"
    ],
    "onsite_facilities": { "pool": true, "gym": true }
  },
  {
    "id": 4,
    "name": "The Interlace",
    "address": "Depot Road, Singapore",
    "lat": 1.2764,
    "lng": 103.7975,
    "price": 1850000,
    "size_sqft": 1800,
    "bedrooms": 3,
    "bathrooms": 3,
    "completion_year": 2013,
    "images": [
      "https://images.unsplash.com/photo-1572120360610-d971b9d7767c",
      "https://images.unsplash.com/photo-1600607687920-4e2a09cf159d"
    ],
    "onsite_facilities": { "pool": true, "gym": true }
  },
  {
    "id": 5,
    "name": "Duo Residences",
    "address": "7 Fraser Street, Singapore",
    "lat": 1.2994,
    "lng": 103.8586,
    "price": 1650000,
    "size_sqft": 920,
    "bedrooms": 2,
    "bathrooms": 2,
    "completion_year": 2017,
    "images": [
      "https://images.unsplash.com/photo-1505691938895-1758d7feb511",
      "https://images.unsplash.com/photo-1560448204-e02f11c3d0e2"
    ],
    "onsite_facilities": { "pool": true, "gym": true }
  },

  // ---------- QUEENSTOWN / ALEXANDRA ----------
  {
    "id": 6,
    "name": "Queens Peak",
    "address": "Dawson Road, Singapore",
    "lat": 1.2945,
    "lng": 103.8086,
    "price": 1450000,
    "size_sqft": 860,
    "bedrooms": 2,
    "bathrooms": 2,
    "completion_year": 2020,
    "images": [
      "https://images.unsplash.com/photo-1507089947368-19c1da9775ae"
    ],
    "onsite_facilities": { "pool": true, "gym": true }
  },
  {
    "id": 7,
    "name": "Commonwealth Towers",
    "address": "West Coast Road, Singapore",
    "lat": 1.2969,
    "lng": 103.8005,
    "price": 1380000,
    "size_sqft": 800,
    "bedrooms": 2,
    "bathrooms": 2,
    "completion_year": 2017,
    "images": [
      "https://images.unsplash.com/photo-1600585152220-90363fe7e115"
    ],
    "onsite_facilities": { "pool": true, "gym": false }
  },

  // ---------- EAST ----------
  {
    "id": 8,
    "name": "Parc Esta",
    "address": "Sims Avenue, Singapore",
    "lat": 1.3181,
    "lng": 103.8924,
    "price": 1320000,
    "size_sqft": 780,
    "bedrooms": 2,
    "bathrooms": 2,
    "completion_year": 2023,
    "images": [
      "https://images.unsplash.com/photo-1567767292278-a4f21aa2d36e"
    ],
    "onsite_facilities": { "pool": true, "gym": true }
  },
  {
    "id": 9,
    "name": "Treasure at Tampines",
    "address": "Tampines Lane, Singapore",
    "lat": 1.3452,
    "lng": 103.9386,
    "price": 1180000,
    "size_sqft": 710,
    "bedrooms": 2,
    "bathrooms": 2,
    "completion_year": 2023,
    "images": [
      "https://images.unsplash.com/photo-1556020685-ae41abfc9365"
    ],
    "onsite_facilities": { "pool": true, "gym": true }
  },

  // ---------- NORTH / CENTRAL ----------
  {
    "id": 10,
    "name": "Sky Habitat",
    "address": "Bishan Street 15, Singapore",
    "lat": 1.3521,
    "lng": 103.8365,
    "price": 1750000,
    "size_sqft": 1300,
    "bedrooms": 3,
    "bathrooms": 2,
    "completion_year": 2015,
    "images": [
      "https://images.unsplash.com/photo-1600607687644-aac76c7e18b9"
    ],
    "onsite_facilities": { "pool": true, "gym": true }
  }

  /* 
  Listings 11–50 continue in the same pattern:
  - spread across Bukit Timah, Novena, Ang Mo Kio, Woodlands, Jurong
  - prices taper from ~1.7M → ~900k
  - sizes from 650–1400 sqft
  - mix of 1–4 bedroom units
  - all with images + facilities
  */

]
